City_ID,City,Country,Date,Lat,Lng,Max Temp,Humidity,Cloudiness,Wind Speed
0,Dengzhou,CN,2021-10-19 18:12:19,37.8086,120.7508,49.96,53,94,9.19
1,Rochester,US,2021-10-19 18:10:41,43.1548,-77.6156,68.18,38,20,1.99
2,Thompson,CA,2021-10-19 18:12:21,55.7435,-97.8558,38.8,60,54,11.56
3,Katsuura,JP,2021-10-19 18:09:14,35.1333,140.3,62.62,77,98,12.24
4,Rikitea,PF,2021-10-19 18:10:55,-23.1203,-134.9692,74.82,72,5,21.5
5,Ushuaia,AR,2021-10-19 18:12:22,-54.8,-68.3,58.66,47,40,21.85
6,Codrington,AU,2021-10-19 18:12:23,-38.2667,141.9667,44.26,97,55,10.94
7,Chuy,UY,2021-10-19 18:10:51,-33.6971,-53.4616,65.59,58,12,11.81
8,Dikson,RU,2021-10-19 18:12:24,73.5069,80.5464,27.37,57,100,12.21
9,Longyearbyen,SJ,2021-10-19 18:12:24,78.2186,15.6401,13.84,73,20,14.97
10,Leshukonskoye,RU,2021-10-19 18:12:25,64.8989,45.7622,33.13,86,71,10.67
11,Puerto Ayora,EC,2021-10-19 18:12:25,-0.7393,-90.3518,80.56,79,67,9.73
12,Havoysund,NO,2021-10-19 18:12:26,70.9963,24.6622,26.83,78,100,6.55
13,Novikovo,RU,2021-10-19 18:12:26,51.1537,37.8879,39.81,67,98,11.83
14,Sola,VU,2021-10-19 18:12:27,-13.8833,167.55,79.79,81,100,14.92
15,Usogorsk,RU,2021-10-19 18:12:28,63.4106,48.6872,35.85,83,100,7.96
16,Hasaki,JP,2021-10-19 18:12:06,35.7333,140.8333,54.28,79,100,7.85
17,Hirara,JP,2021-10-19 18:12:29,24.8,125.2833,77.43,68,96,18.57
18,Atuona,PF,2021-10-19 18:11:06,-9.8,-139.0333,78.39,75,26,21.0
19,Kaitangata,NZ,2021-10-19 18:12:29,-46.2817,169.8464,42.93,76,21,7.94
20,Vaini,TO,2021-10-19 18:10:58,-21.2,-175.2,71.76,88,40,8.05
21,Kamennogorsk,RU,2021-10-19 18:12:30,60.9545,29.1339,30.52,78,50,1.9
22,Santa Rosa,PH,2021-10-19 18:12:30,14.3122,121.1114,82.09,76,2,8.05
23,Epe,NG,2021-10-19 18:12:31,6.5841,3.9834,78.35,85,79,5.99
24,Hithadhoo,MV,2021-10-19 18:12:31,-0.6,73.0833,82.6,75,75,11.25
25,Svetlyy,RU,2021-10-19 18:12:32,54.675,20.1347,48.25,82,98,13.29
26,Ribeira Grande,PT,2021-10-19 18:11:50,38.5167,-28.7,72.0,68,40,11.5
27,New Norfolk,AU,2021-10-19 18:10:59,-42.7826,147.0587,39.9,71,31,2.08
28,Lata,PT,2021-10-19 18:11:32,40.1629,-8.3327,74.91,75,11,2.26
29,Avallon,FR,2021-10-19 18:12:33,47.4833,3.9,58.17,62,84,7.0
30,Butaritari,KI,2021-10-19 18:11:36,3.0707,172.7902,82.06,68,29,9.17
31,Busselton,AU,2021-10-19 18:10:58,-33.65,115.3333,54.09,74,100,23.47
32,Galle,LK,2021-10-19 18:09:13,6.0367,80.217,79.84,81,59,9.35
33,Alofi,NU,2021-10-19 18:10:57,-19.0595,-169.9187,74.3,70,100,18.41
34,Dingle,PH,2021-10-19 18:12:34,10.9995,122.6711,77.09,92,98,5.1
35,Qaanaaq,GL,2021-10-19 18:11:13,77.484,-69.3632,23.13,72,95,11.74
36,Pangody,RU,2021-10-19 18:12:35,65.85,74.4859,40.21,96,100,15.28
37,Porto Novo,BJ,2021-10-19 18:11:44,6.4965,2.6036,79.65,79,54,7.07
38,Avarua,CK,2021-10-19 18:12:35,-21.2078,-159.775,69.85,94,75,1.14
39,Bredasdorp,ZA,2021-10-19 18:11:37,-34.5322,20.0403,58.28,88,0,14.7
40,Saskylakh,RU,2021-10-19 18:12:17,71.9167,114.0833,21.38,97,100,1.05
41,Fatehpur,IN,2021-10-19 18:12:37,25.9333,80.8,73.85,92,70,6.55
42,The Valley,AI,2021-10-19 18:08:24,18.217,-63.0578,85.1,74,40,7.29
43,Sambava,MG,2021-10-19 18:12:19,-14.2667,50.1667,72.81,83,63,7.78
44,Cape Town,ZA,2021-10-19 18:11:24,-33.9258,18.4232,66.34,61,0,1.99
45,Yellowknife,CA,2021-10-19 18:09:17,62.456,-114.3525,44.42,83,52,10.0
46,Carutapera,BR,2021-10-19 18:12:38,-1.195,-46.02,86.81,59,57,9.08
47,Liwale,TZ,2021-10-19 18:12:38,-9.7667,37.9333,75.52,58,91,7.54
48,Upernavik,GL,2021-10-19 18:11:24,72.7868,-56.1549,34.86,73,100,19.62
49,Hermanus,ZA,2021-10-19 18:10:25,-34.4187,19.2345,58.8,75,0,12.55
50,Kapaa,US,2021-10-19 18:11:07,22.0752,-159.319,75.18,86,20,12.66
51,Kapoeta,SS,2021-10-19 18:12:40,4.7717,33.5903,86.04,41,100,11.01
52,Bira,RU,2021-10-19 18:12:40,49.0,132.4667,22.71,75,98,2.98
53,Mataura,NZ,2021-10-19 18:12:41,-46.1927,168.8643,41.25,65,96,2.51
54,Maningrida,AU,2021-10-19 18:12:41,-12.0667,134.2667,78.03,87,69,5.48
55,Castro,BR,2021-10-19 18:12:42,-24.7911,-50.0119,55.92,97,100,6.2
56,Harper,LR,2021-10-19 18:09:18,4.375,-7.7169,79.63,80,80,8.9
57,Punta Arenas,CL,2021-10-19 18:12:42,-53.15,-70.9167,62.71,51,75,35.68
58,Bethel,US,2021-10-19 18:12:43,41.3712,-73.414,65.71,53,1,1.01
59,Klaksvik,FO,2021-10-19 18:11:08,62.2266,-6.589,50.92,96,96,6.8
60,Aksarka,RU,2021-10-19 18:12:44,66.5606,67.7975,32.72,99,100,7.11
61,Ahipara,NZ,2021-10-19 18:12:44,-35.1667,173.1667,52.45,90,68,4.9
62,Lorengau,PG,2021-10-19 18:12:44,-2.0226,147.2712,81.81,78,69,9.53
63,Nikolskoye,RU,2021-10-19 18:11:09,59.7035,30.7861,33.8,80,46,3.67
64,Nyurba,RU,2021-10-19 18:12:45,63.2842,118.3319,33.46,96,100,10.63
65,Seoul,KR,2021-10-19 18:07:55,37.5683,126.9778,45.84,67,1,2.39
66,Biak,ID,2021-10-19 18:12:46,-0.9131,122.8766,76.82,82,87,3.56
67,Anaconda,US,2021-10-19 18:12:46,46.1285,-112.9423,45.59,54,74,3.62
68,Jamestown,US,2021-10-19 18:12:47,42.097,-79.2353,65.52,51,1,8.99
69,Celestun,MX,2021-10-19 18:12:47,20.8667,-90.4,86.88,58,100,3.51
70,Kruisfontein,ZA,2021-10-19 18:12:48,-34.0033,24.7314,59.88,75,0,11.1
71,Albany,US,2021-10-19 18:12:45,42.6001,-73.9662,63.45,49,7,7.0
72,Beira,MZ,2021-10-19 18:12:48,-19.8436,34.8389,72.09,78,100,17.63
73,Westport,US,2021-10-19 18:09:04,41.1415,-73.3579,67.05,53,1,1.01
74,Half Moon Bay,US,2021-10-19 18:08:23,37.4636,-122.4286,64.54,72,1,1.99
75,Port Alfred,ZA,2021-10-19 18:10:56,-33.5906,26.891,61.43,74,0,14.81
76,Sao Joao Da Barra,BR,2021-10-19 18:12:50,-21.6403,-41.0511,71.69,93,100,14.63
77,Olafsvik,IS,2021-10-19 18:12:48,64.8945,-23.7142,38.05,65,48,35.1
78,Bonavista,CA,2021-10-19 18:11:21,48.6499,-53.1147,52.77,77,57,7.87
79,Bilma,NE,2021-10-19 18:12:51,18.6853,12.9164,90.39,12,0,8.61
80,San Patricio,US,2021-10-19 18:12:51,28.017,-97.5169,86.41,52,100,12.71
81,Los Llanos De Aridane,ES,2021-10-19 18:12:52,28.6585,-17.9182,76.12,66,97,13.8
82,Saint-Philippe,RE,2021-10-19 18:12:52,-21.3585,55.7679,72.99,76,70,8.14
83,Buckeye,US,2021-10-19 18:10:53,33.3703,-112.5838,77.81,36,0,1.5
84,Plettenberg Bay,ZA,2021-10-19 18:12:53,-34.0527,23.3716,59.52,82,0,12.35
85,Tiksi,RU,2021-10-19 18:10:58,71.6872,128.8694,17.8,96,100,7.18
86,Pontes E Lacerda,BR,2021-10-19 18:12:53,-15.2261,-59.3353,79.99,57,100,1.48
87,Kodiak,US,2021-10-19 18:11:22,57.79,-152.4072,44.11,76,90,6.91
88,Tasiilaq,GL,2021-10-19 18:12:54,65.6145,-37.6368,33.96,48,5,1.41
89,Shipitsyno,RU,2021-10-19 18:12:54,61.2806,46.5208,31.35,93,77,6.11
90,Bluff,NZ,2021-10-19 18:11:08,-46.6,168.3333,47.53,63,92,11.21
91,Isangel,VU,2021-10-19 18:12:56,-19.55,169.2667,75.61,91,100,4.41
92,Fukue,JP,2021-10-19 18:12:57,32.6881,128.8419,63.86,55,94,20.09
93,Shingu,JP,2021-10-19 18:12:57,33.7333,135.9833,57.83,76,25,9.4
94,Barrow,US,2021-10-19 18:11:06,71.2906,-156.7887,21.22,68,90,16.11
95,Kupang,ID,2021-10-19 18:12:58,-10.1667,123.5833,79.47,85,75,5.23
96,Khatanga,RU,2021-10-19 18:12:59,71.9667,102.5,29.32,90,100,15.52
97,Cacule,BR,2021-10-19 18:12:59,-14.5033,-42.2222,92.23,30,87,0.74
98,Mahebourg,MU,2021-10-19 18:12:59,-20.4081,57.7,73.26,75,35,10.04
99,Porto Velho,BR,2021-10-19 18:13:00,-8.7619,-63.9039,87.85,58,75,2.3
100,College,US,2021-10-19 18:08:38,64.8569,-147.8028,31.66,73,90,3.44
101,Kazlu Ruda,LT,2021-10-19 18:13:00,54.7667,23.5,44.65,59,100,11.25
102,Aykhal,RU,2021-10-19 18:10:54,66.0,111.5,30.56,96,100,19.64
103,Dukat,RU,2021-10-19 18:13:01,62.55,155.55,-2.33,98,100,4.79
104,Cooma,AU,2021-10-19 18:13:02,-36.2333,149.1333,46.17,100,90,12.66
105,Saint George,US,2021-10-19 18:09:42,37.1041,-113.5841,63.07,41,1,1.01
106,Grua,NO,2021-10-19 18:13:02,60.2667,10.6667,33.89,99,100,1.57
107,Berea,US,2021-10-19 18:13:03,41.3662,-81.8543,73.09,50,20,1.99
108,Guerrero Negro,MX,2021-10-19 18:13:04,27.9769,-114.0611,70.05,57,45,15.14
109,Coquimbo,CL,2021-10-19 18:12:43,-29.9533,-71.3436,58.73,77,75,10.36
110,Taoudenni,ML,2021-10-19 18:13:04,22.6783,-3.9836,89.51,13,41,15.59
111,Cap Malheureux,MU,2021-10-19 18:13:05,-19.9842,57.6142,73.47,77,35,3.0
112,Hobart,AU,2021-10-19 18:11:19,-42.8794,147.3294,40.26,86,49,1.01
113,Peleduy,RU,2021-10-19 18:12:15,59.6289,112.7406,33.96,96,100,8.99
114,Broken Hill,AU,2021-10-19 18:13:06,-31.95,141.4333,55.89,39,13,9.55
115,Maragogi,BR,2021-10-19 18:13:06,-9.0122,-35.2225,80.98,71,74,10.4
116,Tura,IN,2021-10-19 18:12:23,25.5198,90.2201,71.64,99,100,2.55
117,Vanimo,PG,2021-10-19 18:13:07,-2.6741,141.3028,77.83,90,100,3.71
118,Mahmudia,RO,2021-10-19 18:13:07,45.0833,29.0833,52.14,51,70,3.2
119,Yarada,IN,2021-10-19 18:13:08,17.65,83.2667,80.92,94,90,3.44
120,Porto Walter,BR,2021-10-19 18:13:08,-8.2686,-72.7439,85.57,62,99,3.44
121,Lompoc,US,2021-10-19 18:13:09,34.6391,-120.4579,69.69,63,1,3.44
122,Mehamn,NO,2021-10-19 18:13:09,71.0357,27.8492,30.11,86,40,6.91
123,Fairbanks,US,2021-10-19 18:10:45,64.8378,-147.7164,30.24,77,90,3.44
124,Guiratinga,BR,2021-10-19 18:13:11,-16.3494,-53.7583,86.32,47,84,5.17
125,Yulara,AU,2021-10-19 18:13:11,-25.2406,130.9889,71.44,28,21,0.0
126,Urumqi,CN,2021-10-19 18:13:12,43.801,87.6005,45.55,49,0,6.71
127,Bilibino,RU,2021-10-19 18:10:17,68.0546,166.4372,3.34,96,100,3.02
128,Victoria,HK,2021-10-19 18:12:01,22.2855,114.1577,79.32,80,75,4.0
129,Bambous Virieux,MU,2021-10-19 18:11:32,-20.3428,57.7575,73.22,75,42,10.27
130,Lucea,JM,2021-10-19 18:13:13,18.451,-78.1736,87.66,75,71,13.09
131,Chandbali,IN,2021-10-19 18:13:13,20.7833,86.7667,78.42,92,100,4.29
132,San Policarpo,PH,2021-10-19 18:13:14,12.1791,125.5072,81.27,80,87,4.29
133,Kaeo,NZ,2021-10-19 18:12:26,-35.1,173.7833,52.32,95,39,5.86
134,Caruray,PH,2021-10-19 18:13:15,10.3094,119.0128,80.13,87,77,5.7
135,Oranjestad,AW,2021-10-19 18:10:14,12.524,-70.027,89.55,66,40,19.57
136,Salalah,OM,2021-10-19 18:09:26,17.0151,54.0924,78.89,83,75,5.75
137,Torbay,CA,2021-10-19 18:12:44,47.6666,-52.7314,59.88,69,1,6.93
138,Bathsheba,BB,2021-10-19 18:12:27,13.2167,-59.5167,88.41,62,40,16.11
139,Uri,IN,2021-10-19 18:13:17,34.0833,74.0333,58.86,68,0,3.65
140,Hilo,US,2021-10-19 18:10:52,19.7297,-155.09,74.25,89,90,6.91
141,Dharchula,IN,2021-10-19 18:13:17,29.85,80.5333,65.48,88,89,3.06
142,Bollnas,SE,2021-10-19 18:13:18,61.3482,16.3946,37.38,98,100,5.57
143,Sitka,US,2021-10-19 18:13:18,57.0531,-135.33,51.69,50,90,20.71
144,Bambanglipuro,ID,2021-10-19 18:13:18,-7.95,110.2833,77.56,86,98,2.55
145,Ciudad Bolivar,VE,2021-10-19 18:13:19,8.1222,-63.5497,93.11,44,90,4.65
146,Abu Samrah,SY,2021-10-19 18:13:20,35.3029,37.1841,66.06,65,31,11.36
147,Lavrentiya,RU,2021-10-19 18:11:07,65.5833,-171.0,28.31,95,100,22.57
148,Murray Bridge,AU,2021-10-19 18:12:34,-35.1167,139.2667,63.37,61,74,8.84
149,Eureka,US,2021-10-19 18:13:21,40.8021,-124.1637,61.93,62,98,10.0
150,Basco,PH,2021-10-19 18:13:21,20.4487,121.9702,80.08,74,70,17.02
151,Kasane,BW,2021-10-19 18:13:21,-17.8167,25.15,75.24,49,74,5.3
152,Puerto Escondido,MX,2021-10-19 18:11:24,15.85,-97.0667,88.63,58,40,6.91
153,Ayan,RU,2021-10-19 18:13:01,56.45,138.1667,28.04,59,20,7.87
154,Fortuna,US,2021-10-19 18:13:22,40.5982,-124.1573,61.66,62,1,1.01
155,Waterloo,CA,2021-10-19 18:11:44,43.4668,-80.5164,69.48,56,2,8.01
156,Waingapu,ID,2021-10-19 18:13:23,-9.6567,120.2641,80.31,80,85,4.41
157,Arlit,NE,2021-10-19 18:13:24,18.7369,7.3853,96.42,10,96,6.49
158,Port Lincoln,AU,2021-10-19 18:12:32,-34.7333,135.8667,62.08,63,100,21.56
159,El Dorado,US,2021-10-19 18:13:25,38.7666,-120.5177,58.06,59,60,1.99
160,Georgetown,MY,2021-10-19 18:08:44,5.4112,100.3354,78.89,91,72,5.75
161,Saint Anthony,US,2021-10-19 18:13:25,45.0205,-93.218,72.25,47,1,1.99
162,Vestmannaeyjar,IS,2021-10-19 18:13:26,63.4427,-20.2734,45.59,65,100,3.44
163,Portland,US,2021-10-19 18:10:17,45.5234,-122.6762,59.09,77,75,8.01
164,Komsomolskiy,UZ,2021-10-19 18:12:27,40.4272,71.7189,56.12,54,93,9.22
165,Sao Filipe,CV,2021-10-19 18:12:37,14.8961,-24.4956,82.4,63,3,4.81
166,Umm Kaddadah,SD,2021-10-19 18:13:27,13.6017,26.6876,91.85,13,6,16.51
167,Sangmelima,CM,2021-10-19 18:13:27,2.9333,11.9833,69.82,98,97,4.56
168,Cabo San Lucas,MX,2021-10-19 18:09:51,22.8909,-109.9124,88.61,57,1,13.8
169,Pareora,NZ,2021-10-19 18:13:28,-44.4871,171.2132,46.18,97,100,3.58
170,Marawi,PH,2021-10-19 18:13:29,7.9986,124.2928,68.65,93,75,3.36
171,Saldanha,ZA,2021-10-19 18:11:32,-33.0117,17.9442,64.0,63,0,14.7
172,Chokurdakh,RU,2021-10-19 18:13:29,70.6333,147.9167,-7.98,96,100,6.42
173,Tigil,RU,2021-10-19 18:13:30,57.8,158.6667,23.94,88,99,13.35
174,Isla Vista,US,2021-10-19 18:13:30,34.4133,-119.861,70.25,58,1,8.05
175,Ust-Kuyga,RU,2021-10-19 18:13:32,70.0167,135.6,-3.98,97,80,6.78
176,Atikokan,CA,2021-10-19 18:13:32,48.7555,-91.6216,62.22,45,100,6.71
177,Shakawe,BW,2021-10-19 18:13:33,-18.3667,21.85,71.46,65,66,9.13
178,Waw,SS,2021-10-19 18:13:34,7.7029,27.9953,77.63,67,96,4.74
179,Mount Isa,AU,2021-10-19 18:13:18,-20.7333,139.5,73.17,46,81,0.0
180,Waspan,NI,2021-10-19 18:13:34,14.7419,-83.9717,83.21,79,83,6.82
181,Urucara,BR,2021-10-19 18:13:35,-2.5364,-57.76,95.07,40,84,2.95
182,Souillac,MU,2021-10-19 18:11:14,-20.5167,57.5167,73.36,73,14,7.38
183,Kampong Chhnang,KH,2021-10-19 18:13:36,12.1667,104.55,78.22,85,100,3.2
184,Mahon,ES,2021-10-19 18:13:36,39.8885,4.2658,64.96,68,20,4.61
185,Santa Vitoria Do Palmar,BR,2021-10-19 18:13:37,-33.5189,-53.3681,65.77,58,17,10.09
186,Iraquara,BR,2021-10-19 18:13:37,-12.2486,-41.6194,91.35,29,80,3.87
187,Norman Wells,CA,2021-10-19 18:11:08,65.282,-126.8329,23.0,82,92,5.44
188,Astaneh-Ye Ashrafiyeh,IR,2021-10-19 18:13:38,37.2596,49.9444,63.3,88,84,2.75
189,Tamale,GH,2021-10-19 18:13:38,9.4008,-0.8393,83.73,62,49,3.56
190,Mardan,PK,2021-10-19 18:13:39,34.2019,72.0525,73.94,45,0,3.91
191,Port Macquarie,AU,2021-10-19 18:08:49,-31.4333,152.9167,58.89,89,73,10.42
192,Gat,IL,2021-10-19 18:12:01,31.61,34.7642,72.28,100,57,4.72
193,Port Augusta,AU,2021-10-19 18:13:40,-32.5,137.7667,66.34,29,100,10.71
194,Vanavara,RU,2021-10-19 18:13:41,60.34,102.2797,34.57,95,100,7.27
195,Severo-Kurilsk,RU,2021-10-19 18:13:41,50.6789,156.125,39.96,85,84,12.53
196,Port Hedland,AU,2021-10-19 18:12:45,-20.3167,118.5667,73.45,73,98,8.05
197,Wuwei,CN,2021-10-19 18:13:43,37.9281,102.6414,39.07,74,97,1.41
198,Santiago,CL,2021-10-19 18:12:14,-33.4569,-70.6483,87.24,16,0,6.91
199,Grand Gaube,MU,2021-10-19 18:13:43,-20.0064,57.6608,73.38,77,41,3.0
200,Lebu,CL,2021-10-19 18:11:05,-37.6167,-73.65,60.62,72,0,10.56
201,Acajutla,SV,2021-10-19 18:13:44,13.5928,-89.8275,82.54,69,98,1.45
202,Paamiut,GL,2021-10-19 18:13:45,61.994,-49.6678,40.48,52,0,5.77
203,East London,ZA,2021-10-19 18:11:19,-33.0153,27.9116,62.58,67,0,11.48
204,Perth,AU,2021-10-19 18:12:35,-31.9333,115.8333,61.09,80,75,19.57
205,Chapais,CA,2021-10-19 18:13:46,49.7834,-74.8492,42.58,86,100,8.5
206,Constitucion,CL,2021-10-19 18:11:44,-35.3333,-72.4167,66.02,58,4,5.99
207,Hartlepool,GB,2021-10-19 18:13:46,54.6861,-1.2125,64.29,83,100,18.61
208,Faanui,PF,2021-10-19 18:13:47,-16.4833,-151.75,79.88,78,98,14.34
209,Caravelas,BR,2021-10-19 18:11:38,-17.7125,-39.2481,82.51,62,77,11.48
210,Ponta Do Sol,PT,2021-10-19 18:10:23,32.6667,-17.1,79.72,78,90,3.33
211,Lazaro Cardenas,MX,2021-10-19 18:09:19,17.9583,-102.2,83.53,78,68,3.0
212,Sterling,US,2021-10-19 18:09:07,39.0062,-77.4286,74.01,44,1,1.01
213,Tarauaca,BR,2021-10-19 18:13:48,-8.1614,-70.7656,86.29,61,99,3.69
214,Westerland,DE,2021-10-19 18:12:05,54.9079,8.3033,59.18,100,90,21.85
215,Dehloran,IR,2021-10-19 18:13:49,32.6941,47.2679,76.82,22,0,8.3
216,Lingao,CN,2021-10-19 18:13:49,19.9103,109.6859,75.6,94,69,8.79
217,Seredka,RU,2021-10-19 18:13:50,58.1584,28.1858,24.55,61,83,2.44
218,Narsaq,GL,2021-10-19 18:13:39,60.9167,-46.05,38.26,47,10,1.74
219,Nchelenge,ZM,2021-10-19 18:13:50,-9.3451,28.734,77.7,66,67,9.71
220,San Rafael,AR,2021-10-19 18:09:02,-34.6177,-68.3301,82.24,13,0,14.38
221,Kudahuvadhoo,MV,2021-10-19 18:13:51,2.6708,72.8944,82.58,74,13,11.41
222,Kaspiysk,RU,2021-10-19 18:13:51,42.8816,47.6392,53.78,87,90,15.99
223,Touros,BR,2021-10-19 18:12:41,-5.1989,-35.4608,86.9,63,63,15.55
224,Kiruna,SE,2021-10-19 18:13:52,67.8557,20.2251,14.92,92,100,2.3
225,Santa Isabel Do Rio Negro,BR,2021-10-19 18:13:53,-0.4139,-65.0192,89.28,54,51,0.58
226,Rocha,UY,2021-10-19 18:13:53,-34.4833,-54.3333,68.94,48,4,4.61
227,Mastic Beach,US,2021-10-19 18:13:54,40.7668,-72.8521,66.45,53,1,5.01
228,Thinadhoo,MV,2021-10-19 18:13:54,0.5333,72.9333,83.75,73,26,12.33
229,Aklavik,CA,2021-10-19 18:13:54,68.2191,-135.0107,16.52,95,71,6.35
230,Tuatapere,NZ,2021-10-19 18:12:54,-46.1333,167.6833,39.96,73,73,3.31
231,Vostok,RU,2021-10-19 18:12:12,46.4856,135.8833,12.69,79,4,2.98
232,Zharkovskiy,RU,2021-10-19 18:13:55,55.849,32.2697,32.34,80,65,6.73
233,Ixtapa,MX,2021-10-19 18:13:56,20.7,-105.2,87.22,66,40,0.0
234,Nemuro,JP,2021-10-19 18:12:43,43.3236,145.575,54.12,84,100,14.29
235,Moron,AR,2021-10-19 18:13:56,-34.6534,-58.6198,78.03,37,2,1.01
236,Poum,NC,2021-10-19 18:13:57,-20.2333,164.0167,75.16,83,100,10.4
237,Ahtopol,BG,2021-10-19 18:13:58,42.1,27.95,54.07,80,40,3.31
238,Udachnyy,RU,2021-10-19 18:13:58,66.4167,112.4,31.33,93,99,16.49
239,Caborca,MX,2021-10-19 18:13:59,30.5838,-111.101,69.49,38,0,8.3
240,Muli,MV,2021-10-19 18:13:59,2.9167,73.5667,82.87,73,14,12.88
241,Kemijarvi,FI,2021-10-19 18:14:00,66.7131,27.4306,27.18,80,69,1.59
242,Jalingo,NG,2021-10-19 18:14:00,8.8833,11.3667,80.2,75,88,4.9
243,Chumikan,RU,2021-10-19 18:14:01,54.7183,135.315,24.33,84,24,16.62
244,Kuching,MY,2021-10-19 18:14:01,1.55,110.3333,75.42,94,40,3.44
245,Butterworth,MY,2021-10-19 18:11:09,5.3991,100.3638,79.0,91,95,5.75
246,Port Elizabeth,ZA,2021-10-19 18:11:22,-33.918,25.5701,62.1,77,0,13.44
247,Yakovlevka,RU,2021-10-19 18:14:03,44.425,133.4772,25.65,56,0,1.95
248,Plouzane,FR,2021-10-19 18:14:01,48.3833,-4.6167,64.42,91,90,19.57
249,Maceio,BR,2021-10-19 18:14:05,-9.6658,-35.7353,89.04,66,20,9.22
250,Luderitz,NA,2021-10-19 18:11:53,-26.6481,15.1594,61.77,64,3,6.67
251,Miri,MY,2021-10-19 18:14:06,4.4148,114.0089,77.74,89,100,3.78
252,Murgab,TM,2021-10-19 18:14:06,37.4966,61.9714,60.67,33,90,0.0
253,Emerald,AU,2021-10-19 18:14:07,-23.5333,148.1667,69.35,41,2,7.49
254,Dunedin,NZ,2021-10-19 18:13:33,-45.8742,170.5036,45.81,60,7,20.0
255,Aswan,EG,2021-10-19 18:14:07,24.0934,32.907,83.8,17,0,13.53
256,Pevek,RU,2021-10-19 18:12:04,69.7008,170.3133,14.67,91,100,15.03
257,Khewra,PK,2021-10-19 18:14:08,32.6479,73.0106,75.92,34,0,2.39
258,Baykit,RU,2021-10-19 18:14:09,61.67,96.37,37.27,93,100,5.57
259,Sheltozero,RU,2021-10-19 18:14:09,61.3667,35.3667,34.99,81,97,11.56
260,Ginda,IN,2021-10-19 18:14:10,30.6945,78.4932,55.99,75,5,5.35
261,Kutum,SD,2021-10-19 18:13:06,14.2,24.6667,81.27,14,8,9.91
262,Mezokeresztes,HU,2021-10-19 18:14:10,47.8333,20.7,51.03,65,51,6.22
263,San Cristobal,VE,2021-10-19 18:14:02,7.7669,-72.225,80.78,49,20,6.67
264,Alekseyevka,RU,2021-10-19 18:14:11,50.6309,38.6903,40.14,69,72,9.4
265,Olga,RU,2021-10-19 18:14:12,43.7444,135.2892,26.17,65,82,8.97
266,Zeya,RU,2021-10-19 18:14:12,53.75,127.2667,26.96,76,40,2.73
267,Meiganga,CM,2021-10-19 18:14:13,6.5167,14.3,68.61,91,90,1.9
268,Arraial Do Cabo,BR,2021-10-19 18:13:52,-22.9661,-42.0278,69.66,83,90,10.36
269,Nador,MA,2021-10-19 18:14:13,35.174,-2.9287,68.25,83,75,9.22
270,Staryy Nadym,RU,2021-10-19 18:14:14,65.6118,72.6842,41.2,95,100,14.36
271,Kapasan,ID,2021-10-19 18:14:14,-6.7773,111.3789,78.49,85,93,3.89
272,Shimoni,KE,2021-10-19 18:14:15,-4.6476,39.3817,77.31,82,96,10.54
273,Gladstone,AU,2021-10-19 18:14:15,-23.85,151.25,68.79,83,75,10.36
274,Kitsuki,JP,2021-10-19 18:14:16,33.4167,131.6167,57.06,62,92,12.57
275,Hue,VN,2021-10-19 18:14:16,16.4667,107.6,75.31,94,75,3.44
276,Homer,US,2021-10-19 18:14:17,59.6425,-151.5483,40.8,90,90,5.75
277,Huarmey,PE,2021-10-19 18:14:17,-10.0681,-78.1522,69.93,72,82,9.46
278,Biu,NG,2021-10-19 18:12:43,10.6129,12.1946,79.52,55,81,3.94
279,Clyde River,CA,2021-10-19 18:11:03,70.4692,-68.5914,31.6,76,87,3.98
280,Tervel,BG,2021-10-19 18:14:19,43.75,27.4,53.69,72,94,3.74
281,Bilimbay,RU,2021-10-19 18:14:20,56.9689,59.8149,43.74,85,100,5.73
282,Camana,PE,2021-10-19 18:10:55,-16.6228,-72.7111,67.35,71,78,8.48
283,Kieta,PG,2021-10-19 18:14:20,-6.2167,155.6333,78.64,84,32,3.18
284,Broome,US,2021-10-19 18:14:21,42.2506,-75.833,66.61,52,1,4.0
285,Provideniya,RU,2021-10-19 18:12:14,64.3833,-173.3,32.25,96,100,9.6
286,Coihaique,CL,2021-10-19 18:14:22,-45.5752,-72.0662,70.41,49,40,10.36
287,Batticaloa,LK,2021-10-19 18:14:22,7.7102,81.6924,81.52,78,77,3.13
288,Kahului,US,2021-10-19 18:09:41,20.8947,-156.47,78.82,73,20,10.36
289,Presidencia Roque Saenz Pena,AR,2021-10-19 18:14:23,-26.7852,-60.4388,85.28,17,0,7.02
290,Pueblo Nuevo,MX,2021-10-19 18:14:24,23.3833,-105.3833,70.25,51,85,5.28
291,Nokaneng,BW,2021-10-19 18:14:25,-19.6667,22.2667,73.71,47,91,15.75
292,Carbonia,IT,2021-10-19 18:14:25,39.1672,8.5222,66.99,74,50,3.27
293,Oum Hadjer,TD,2021-10-19 18:14:26,13.2954,19.6966,91.74,19,66,5.48
294,Morbegno,IT,2021-10-19 18:14:26,46.1383,9.57,60.67,73,69,2.46
295,Sabang,ID,2021-10-19 18:14:27,5.8933,95.3214,81.14,79,100,12.41
296,Cervo,ES,2021-10-19 18:14:28,43.6702,-7.4101,77.2,72,56,3.94
297,Pitimbu,BR,2021-10-19 18:14:28,-7.4706,-34.8086,86.59,70,56,11.36
298,Salinas,US,2021-10-19 18:14:29,36.6777,-121.6555,65.16,59,1,5.75
299,Anadyr,RU,2021-10-19 18:14:30,64.75,177.4833,28.0,86,100,13.0
300,Kinsale,IE,2021-10-19 18:14:30,51.7075,-8.5306,58.37,82,20,13.8
301,Mount Gambier,AU,2021-10-19 18:13:41,-37.8333,140.7667,42.71,93,78,6.91
302,Bengkulu,ID,2021-10-19 18:11:16,-3.8004,102.2655,76.53,84,100,4.83
303,Saint-Francois,FR,2021-10-19 18:12:50,46.4154,3.9054,59.47,78,0,3.44
304,Rio Cuarto,AR,2021-10-19 18:14:31,-33.1307,-64.3499,83.97,18,0,10.36
305,Gigmoto,PH,2021-10-19 18:14:32,13.7796,124.39,80.29,86,96,6.33
306,Galesong,ID,2021-10-19 18:14:32,-5.3166,119.3661,73.42,80,64,4.27
307,Marsa Matruh,EG,2021-10-19 18:11:31,31.3525,27.2453,72.05,65,38,10.25
308,Leningradskiy,RU,2021-10-19 18:14:33,69.3833,178.4167,25.48,92,100,13.6
309,Padang,ID,2021-10-19 18:14:33,-0.9492,100.3543,77.05,88,100,3.87
310,Aksu,CN,2021-10-19 18:14:34,41.1231,80.2644,53.2,24,40,4.5
311,Cherskiy,RU,2021-10-19 18:10:35,68.75,161.3,-13.02,100,98,3.74
312,Nacogdoches,US,2021-10-19 18:14:35,31.6002,-94.6335,80.56,53,1,0.0
313,Dali,CN,2021-10-19 18:14:35,25.7,100.1833,60.91,91,67,6.04
314,Bontang,ID,2021-10-19 18:13:20,0.1333,117.5,78.39,86,96,5.1
315,Carnarvon,AU,2021-10-19 18:14:36,-24.8667,113.6333,66.27,63,90,11.5
316,Denizli,TR,2021-10-19 18:14:36,37.8402,29.0698,61.65,53,16,4.36
317,Srednekolymsk,RU,2021-10-19 18:14:17,67.45,153.6833,-7.15,98,34,6.04
318,Praia,CV,2021-10-19 18:12:28,14.9215,-23.5087,88.34,37,0,16.11
319,Matara,LK,2021-10-19 18:14:38,5.9485,80.5353,77.7,88,40,8.14
320,Belyy Yar,RU,2021-10-19 18:13:09,53.6039,91.3903,24.69,100,72,4.47
321,Tongling,CN,2021-10-19 18:14:39,30.95,117.7833,54.45,82,100,12.86
322,Piney Green,US,2021-10-19 18:14:39,34.716,-77.3202,75.02,34,1,4.61
323,Ocos,GT,2021-10-19 18:14:40,14.5094,-92.1933,88.3,75,92,8.23
324,Tambacounda,SN,2021-10-19 18:14:41,13.7539,-13.7586,95.76,24,79,2.01
325,Tateyama,JP,2021-10-19 18:14:41,34.9833,139.8667,62.53,82,20,11.5
326,Sao Raimundo Nonato,BR,2021-10-19 18:14:41,-9.0153,-42.6994,98.2,22,49,5.57
327,Namatanai,PG,2021-10-19 18:12:05,-3.6667,152.4333,79.59,81,57,5.39
328,Cayenne,GF,2021-10-19 18:11:39,4.9333,-52.3333,87.84,76,75,1.99
329,Grindavik,IS,2021-10-19 18:14:42,63.8424,-22.4338,40.95,70,0,32.21
330,Manitouwadge,CA,2021-10-19 18:14:43,49.1215,-85.8403,59.72,52,93,10.54
331,Tuktoyaktuk,CA,2021-10-19 18:13:34,69.4541,-133.0374,15.8,100,75,6.91
332,Karatau,KZ,2021-10-19 18:14:44,43.1667,70.4667,54.66,24,26,3.89
333,Temirtau,KZ,2021-10-19 18:14:44,50.0544,72.9483,45.05,31,3,7.2
334,Talcahuano,CL,2021-10-19 18:14:44,-36.7167,-73.1167,59.59,70,0,8.99
335,Sobolevo,RU,2021-10-19 18:14:45,54.4299,31.8996,32.36,71,44,7.45
336,Hamilton,US,2021-10-19 18:14:46,39.1834,-84.5333,72.84,47,1,1.01
337,Yeppoon,AU,2021-10-19 18:14:04,-23.1333,150.7333,71.38,86,15,5.82
338,Airai,TL,2021-10-19 18:11:17,-8.9266,125.4092,62.13,79,82,1.1
339,Vao,NC,2021-10-19 18:12:20,-22.6667,167.4833,72.7,88,100,13.33
340,Jumla,NP,2021-10-19 18:14:47,29.2747,82.1838,56.77,98,100,0.49
341,Bogotol,RU,2021-10-19 18:14:47,56.2078,89.5342,37.87,79,96,4.32
342,Ancud,CL,2021-10-19 18:14:48,-41.8697,-73.8203,67.53,76,6,6.8
343,Cururupu,BR,2021-10-19 18:12:30,-1.8283,-44.8683,89.19,50,77,8.14
344,Kingman,US,2021-10-19 18:11:47,35.1894,-114.053,64.13,23,1,1.99
345,Ome,JP,2021-10-19 18:14:49,35.7839,139.2431,57.79,91,1,0.0
346,Berezovyy,RU,2021-10-19 18:14:49,51.6667,135.7,17.08,91,77,3.78
347,Batagay,RU,2021-10-19 18:12:18,67.6333,134.6333,4.59,87,100,4.81
348,Cidreira,BR,2021-10-19 18:11:08,-30.1811,-50.2056,65.19,63,6,10.71
349,Ucluelet,CA,2021-10-19 18:14:50,48.9329,-125.5528,54.09,73,97,1.01
350,Santander,ES,2021-10-19 18:10:13,43.4647,-3.8044,78.31,77,0,1.01
351,Bahia Blanca,AR,2021-10-19 18:14:51,-38.7196,-62.2724,81.5,19,1,7.87
352,Djambala,CG,2021-10-19 18:14:52,-2.5447,14.7533,66.81,95,95,3.96
353,Hofn,IS,2021-10-19 18:14:52,64.2539,-15.2082,37.94,69,98,22.7
354,Ayacucho,PE,2021-10-19 18:14:53,-13.1583,-74.2239,69.69,44,85,6.85
355,Thessalon,CA,2021-10-19 18:14:54,46.2501,-83.5666,72.09,61,42,10.69
356,Marsh Harbour,BS,2021-10-19 18:14:26,26.5412,-77.0636,78.46,57,91,15.23
357,Ambilobe,MG,2021-10-19 18:14:54,-13.2,49.05,74.53,71,78,4.29
358,Jaisalmer,IN,2021-10-19 18:14:55,26.9147,70.9181,83.8,12,0,8.75
359,Bryan,US,2021-10-19 18:14:55,30.6744,-96.37,80.22,56,1,9.22
360,Okha,RU,2021-10-19 18:14:56,53.5739,142.9478,24.04,79,56,10.87
361,Kirakira,SB,2021-10-19 18:11:21,-10.4544,161.9205,79.36,84,100,6.62
362,Mar Del Plata,AR,2021-10-19 18:11:23,-38.0023,-57.5575,66.22,63,0,13.8
363,Markdorf,DE,2021-10-19 18:14:58,47.7167,9.4,60.31,91,75,1.14
364,Pacific Grove,US,2021-10-19 18:14:58,36.6177,-121.9166,64.76,77,1,4.0
365,Santa Luzia,BR,2021-10-19 18:14:59,-19.7697,-43.8514,72.5,74,99,4.05
366,Alexandria,EG,2021-10-19 18:10:16,31.2156,29.9553,73.33,61,57,12.64
367,Sinnamary,GF,2021-10-19 18:14:59,5.3833,-52.95,82.49,75,100,9.06
368,Vila,PT,2021-10-19 18:15:00,42.0304,-8.1588,63.73,77,45,6.49
369,Chateau-Gontier,FR,2021-10-19 18:15:00,47.8333,-0.7,68.22,78,61,8.75
370,Sur,OM,2021-10-19 18:15:01,22.5667,59.5289,83.64,57,5,9.71
371,Nouadhibou,MR,2021-10-19 18:13:21,20.931,-17.0347,70.27,86,37,16.62
372,Kavieng,PG,2021-10-19 18:11:34,-2.5744,150.7967,82.27,75,24,9.01
373,Saint-Joseph,RE,2021-10-19 18:11:37,-21.3667,55.6167,71.98,78,57,6.87
374,Dasoguz,TM,2021-10-19 18:15:03,41.8363,59.9666,53.55,35,0,4.61
375,Mountain Home,US,2021-10-19 18:10:57,43.133,-115.6912,56.14,43,8,4.18
376,Vardo,NO,2021-10-19 18:15:04,70.3705,31.1107,30.18,74,40,12.66
377,Miandrivazo,MG,2021-10-19 18:15:05,-19.5167,45.4667,81.25,58,69,5.37
378,Agbor,NG,2021-10-19 18:15:06,6.2518,6.1934,73.72,96,100,4.03
379,Tuban,ID,2021-10-19 18:15:06,-6.8976,112.0649,80.08,80,97,11.25
380,Adrar,MR,2021-10-19 18:12:48,20.5022,-10.0711,89.51,8,45,9.44
381,Laguna,US,2021-10-19 18:14:07,38.421,-121.4238,64.45,60,1,1.01
382,Kayerkan,RU,2021-10-19 18:15:07,69.3497,87.7602,30.49,95,96,9.98
383,Raudeberg,NO,2021-10-19 18:15:08,61.9875,5.1352,53.87,89,100,11.99
384,Karasjok,NO,2021-10-19 18:15:09,69.4719,25.5112,24.91,94,55,3.8
385,Mukhen,RU,2021-10-19 18:15:09,48.1,136.1,24.01,53,0,4.41
386,Namibe,AO,2021-10-19 18:11:02,-15.1961,12.1522,66.2,86,27,8.39
387,Chikwawa,MW,2021-10-19 18:15:10,-16.0335,34.8009,78.82,59,96,12.41
388,Roald,NO,2021-10-19 18:15:12,62.5833,6.1333,52.9,93,75,8.05
389,Huanren,CN,2021-10-19 18:15:12,41.2647,125.3667,29.59,63,0,2.33
390,Dekernes,EG,2021-10-19 18:15:13,31.0876,31.595,69.58,64,43,6.04
391,Umarkot,PK,2021-10-19 18:15:13,25.3616,69.7362,81.66,43,0,11.97
392,Mutoko,ZW,2021-10-19 18:15:14,-17.397,32.2268,58.86,79,30,10.13
393,Parthenay,FR,2021-10-19 18:15:14,46.6667,-0.4167,67.5,62,32,6.87
394,Magadan,RU,2021-10-19 18:15:15,59.5667,150.8,12.04,58,1,7.9
395,Katobu,ID,2021-10-19 18:15:15,-4.9408,122.5276,75.29,93,86,2.01
396,Chara,RU,2021-10-19 18:15:15,56.9064,118.2631,24.22,66,66,1.86
397,Fort Nelson,CA,2021-10-19 18:12:48,58.8053,-122.7002,33.46,68,73,2.62
398,Pekan,MY,2021-10-19 18:15:16,3.4836,103.3996,78.42,86,100,0.74
399,Port Moresby,PG,2021-10-19 18:15:11,-9.4431,147.1797,72.82,100,20,5.75
400,Karratha,AU,2021-10-19 18:15:17,-20.7377,116.8463,69.82,52,98,14.81
401,Odienne,CI,2021-10-19 18:15:19,9.51,-7.5692,81.1,67,62,2.48
402,Madang,PG,2021-10-19 18:15:19,-5.2246,145.7966,76.8,91,99,2.64
403,Esperance,AU,2021-10-19 18:13:19,-33.8667,121.9,60.64,57,51,30.11
404,Grudziadz,PL,2021-10-19 18:15:20,53.4841,18.7537,56.03,68,98,10.11
405,Kidal,ML,2021-10-19 18:15:20,18.4411,1.4078,94.41,18,49,3.0
406,Nome,US,2021-10-19 18:15:21,64.5011,-165.4064,33.87,86,90,19.57
407,Port-Gentil,GA,2021-10-19 18:12:39,-0.7193,8.7815,78.19,82,96,12.41
408,Durham,US,2021-10-19 18:12:35,36.0335,-78.8664,75.61,43,1,1.01
409,Walvis Bay,NA,2021-10-19 18:15:22,-22.9575,14.5053,59.09,82,57,10.36
410,Urmary,RU,2021-10-19 18:15:24,55.6789,47.944,35.58,75,100,7.38
411,Lovozero,RU,2021-10-19 18:15:24,68.005,35.0117,27.86,79,95,13.0
412,Hualmay,PE,2021-10-19 18:15:25,-11.0964,-77.6139,69.3,71,75,8.77
413,Rawson,AR,2021-10-19 18:10:53,-43.3002,-65.1023,70.2,37,24,11.52
414,Banda Aceh,ID,2021-10-19 18:15:26,5.5577,95.3222,79.07,85,99,7.85
415,Iquitos,PE,2021-10-19 18:14:58,-3.7481,-73.2472,77.04,88,75,3.44
416,Mbaiki,CF,2021-10-19 18:15:27,3.8678,17.9892,71.73,99,100,1.83
417,Ust-Maya,RU,2021-10-19 18:15:28,60.4167,134.5333,13.77,81,95,3.51
418,Hami,CN,2021-10-19 18:13:34,42.8,93.45,54.25,24,1,2.28
419,Amos,CA,2021-10-19 18:15:03,48.5669,-78.1162,58.98,55,22,6.67
420,Sassandra,CI,2021-10-19 18:15:29,4.95,-6.0833,77.83,88,89,8.16
421,Zhigalovo,RU,2021-10-19 18:15:30,54.8097,105.1578,29.66,94,71,3.4
422,Ovsyanka,RU,2021-10-19 18:15:31,55.9575,92.5519,29.37,82,50,4.09
423,Peniche,PT,2021-10-19 18:15:32,39.3558,-9.3811,76.48,81,22,7.58
424,Makakilo City,US,2021-10-19 18:15:33,21.3469,-158.0858,77.32,67,1,5.75
425,Kloulklubed,PW,2021-10-19 18:11:45,7.0419,134.2556,83.39,76,98,9.86
426,Langxiang,CN,2021-10-19 18:15:34,46.95,128.8833,27.7,58,81,2.73
427,Cascais,PT,2021-10-19 18:15:37,38.6979,-9.4215,74.97,68,0,3.0
428,Talnakh,RU,2021-10-19 18:15:37,69.4865,88.3972,30.43,96,97,5.73
429,Bodinayakkanur,IN,2021-10-19 18:15:38,10.0167,77.35,77.49,87,100,0.94
430,Winslow,US,2021-10-19 18:15:38,35.0242,-110.6974,59.97,38,1,1.99
431,Nanortalik,GL,2021-10-19 18:11:18,60.1432,-45.2371,40.28,53,50,1.95
432,Williston,US,2021-10-19 18:12:44,48.147,-103.618,41.58,51,80,14.41
433,Iskateley,RU,2021-10-19 18:15:40,67.6803,53.1512,33.4,98,100,6.76
434,Ocampo,MX,2021-10-19 18:15:41,21.65,-101.5,71.28,35,5,3.58
435,Freetown,SL,2021-10-19 18:15:01,8.484,-13.2299,80.22,81,99,6.76
436,Santa Rosalia,MX,2021-10-19 18:15:41,27.3167,-112.2833,74.98,36,1,5.14
437,Coos Bay,US,2021-10-19 18:15:42,43.3665,-124.2179,53.94,88,1,4.61
438,Noumea,NC,2021-10-19 18:12:57,-22.2763,166.4572,71.58,87,100,3.78
439,Kandi,BJ,2021-10-19 18:15:43,11.1342,2.9386,79.48,68,100,2.66
440,Clifton Springs,AU,2021-10-19 18:15:43,-38.15,144.5667,53.58,88,6,8.01
441,Yangambi,CD,2021-10-19 18:15:45,0.8102,24.4336,71.83,98,92,3.22
442,Port Hardy,CA,2021-10-19 18:12:59,50.6996,-127.4199,49.19,74,100,17.27
443,Canelli,IT,2021-10-19 18:15:46,44.7215,8.2924,65.41,76,87,3.06
444,Saint-Augustin,CA,2021-10-19 18:12:16,51.226,-58.6502,43.23,94,100,20.33
445,Killarney,IE,2021-10-19 18:15:46,52.05,-9.5167,52.99,91,49,5.32
446,Kavaratti,IN,2021-10-19 18:13:37,10.5669,72.642,81.93,74,89,9.04
447,Lida,BY,2021-10-19 18:15:47,53.8833,25.2997,41.2,65,100,7.18
448,Ano Mera,GR,2021-10-19 18:15:47,37.45,25.4,66.65,59,20,20.71
449,Rabak,SD,2021-10-19 18:15:48,13.1809,32.74,91.54,23,9,8.21
450,Buin,CL,2021-10-19 18:15:48,-33.7333,-70.75,88.12,13,0,8.75
451,Lima,PE,2021-10-19 18:14:48,-12.0432,-77.0282,68.4,86,40,1.01
452,Cockburn Town,TC,2021-10-19 18:12:44,21.4612,-71.1419,84.16,70,75,5.75
453,Geraldton,AU,2021-10-19 18:11:08,-28.7667,114.6,63.12,77,40,19.57
454,Bac Lieu,VN,2021-10-19 18:13:25,9.285,105.7244,79.84,81,54,1.79
455,Litovko,RU,2021-10-19 18:15:50,49.2361,135.1742,23.63,64,26,2.33
456,Haines Junction,CA,2021-10-19 18:15:50,60.7522,-137.5108,21.15,86,93,1.14
457,Beloha,MG,2021-10-19 18:12:04,-25.1667,45.05,67.24,79,100,11.43
458,Astana,KZ,2021-10-19 18:14:46,51.1801,71.446,44.47,39,14,7.58
459,Banyo,CM,2021-10-19 18:15:51,6.75,11.8167,67.46,88,73,3.44
460,Ilulissat,GL,2021-10-19 18:14:49,69.2167,-51.1,41.02,30,75,16.11
461,Gorontalo,ID,2021-10-19 18:15:51,0.5412,123.0595,75.0,94,86,2.48
462,Zaozerne,UA,2021-10-19 18:15:52,45.1582,33.2787,52.95,46,93,10.25
463,Grand-Santi,GF,2021-10-19 18:15:52,4.25,-54.3833,87.57,57,77,2.89
464,George,ZA,2021-10-19 18:15:53,-33.963,22.4617,58.55,88,20,11.5
465,Sovetskiy,RU,2021-10-19 18:15:53,61.3614,63.5842,36.9,66,100,10.54
466,Tilichiki,RU,2021-10-19 18:15:18,60.4667,166.1,11.01,90,88,7.92
467,Pervomayskoye,RU,2021-10-19 18:15:55,43.919,46.7102,53.4,65,100,15.75
468,Show Low,US,2021-10-19 18:15:13,34.2542,-110.0298,60.71,47,20,17.27
469,Arshan,RU,2021-10-19 18:15:56,46.2732,44.22,44.98,75,85,15.66
470,Pytalovo,RU,2021-10-19 18:12:23,57.0679,27.9138,36.14,67,89,3.29
471,Sierra Vista,US,2021-10-19 18:15:01,31.5545,-110.3037,70.75,32,1,0.0
472,Qasigiannguit,GL,2021-10-19 18:15:57,68.8193,-51.1922,41.25,76,99,2.48
473,Mocajuba,BR,2021-10-19 18:15:57,-2.5842,-49.5072,93.13,43,88,2.77
474,Yar-Sale,RU,2021-10-19 18:15:58,66.8333,70.8333,33.17,98,100,10.49
475,Jizan,SA,2021-10-19 18:15:58,17.3333,42.6667,86.94,63,13,3.78
476,Pemba,MZ,2021-10-19 18:15:58,-12.974,40.5178,75.9,83,75,2.3
477,Idritsa,RU,2021-10-19 18:15:59,56.3316,28.8988,32.76,73,59,3.09
478,Altamira,BR,2021-10-19 18:16:00,-3.2033,-52.2064,91.49,55,40,3.44
479,Wahpeton,US,2021-10-19 18:16:00,46.2652,-96.6059,63.32,87,90,17.27
480,Kamenka,RU,2021-10-19 18:16:00,51.3223,42.7678,38.62,69,94,9.13
481,Eenhana,NA,2021-10-19 18:16:01,-17.4667,16.3333,87.55,30,81,6.87
482,Dwarka,IN,2021-10-19 18:16:02,22.2394,68.9678,80.44,62,0,9.35
483,Shakiso,ET,2021-10-19 18:16:03,5.75,38.9167,60.39,87,93,1.3
484,Kingston Upon Hull,GB,2021-10-19 18:13:02,53.7446,-0.3353,65.1,86,75,3.0
485,Neiafu,TO,2021-10-19 18:16:04,-18.65,-173.9833,75.88,73,20,9.22
486,Oktyabrskiy,RU,2021-10-19 18:16:04,54.4815,53.471,39.36,67,100,3.87
487,Pandan,PH,2021-10-19 18:12:36,14.0453,124.1694,79.88,87,98,8.39
488,Sao Domingos,BR,2021-10-19 18:16:05,-13.3983,-46.3183,86.32,45,70,3.0
489,Huayang,CN,2021-10-19 18:16:05,34.4155,109.9939,37.85,90,100,2.64
490,Rio Branco,BR,2021-10-19 18:15:11,-9.9747,-67.81,86.61,66,75,6.91
491,Coahuayana,MX,2021-10-19 18:16:06,18.7333,-103.6833,87.28,59,72,4.79
492,Henties Bay,NA,2021-10-19 18:16:07,-22.116,14.2845,58.86,85,90,5.7
493,Khani,GE,2021-10-19 18:16:07,41.9563,42.9566,47.77,98,100,2.68
494,Juegang,CN,2021-10-19 18:16:08,32.3174,121.1855,58.91,58,100,11.14
495,Whyalla,AU,2021-10-19 18:16:08,-33.0333,137.5833,66.09,39,100,6.91
496,Guarapari,BR,2021-10-19 18:13:03,-20.6667,-40.4975,73.29,95,100,12.84
497,San Fernando,PH,2021-10-19 18:15:34,15.0286,120.6898,81.14,86,3,4.18
498,Port Blair,IN,2021-10-19 18:12:13,11.6667,92.75,81.07,83,20,6.91
499,Amahai,ID,2021-10-19 18:16:10,-3.3333,128.9167,78.78,87,93,2.59
500,Mananara,MG,2021-10-19 18:16:11,-16.1667,49.7667,69.64,87,49,3.38
501,Mirnyy,RU,2021-10-19 18:16:11,62.5353,113.9611,31.75,92,100,11.83
502,Naze,JP,2021-10-19 18:12:53,28.3667,129.4833,68.9,67,100,16.8
503,Escanaba,US,2021-10-19 18:11:41,45.7453,-87.0646,70.25,63,1,9.22
504,Atar,MR,2021-10-19 18:16:12,20.5169,-13.0499,102.25,16,14,13.8
505,Hobyo,SO,2021-10-19 18:14:56,5.3505,48.5268,78.76,84,76,14.7
506,Menongue,AO,2021-10-19 18:11:15,-14.6585,17.691,73.04,57,87,7.78
507,Acapulco,MX,2021-10-19 18:13:50,16.8634,-99.8901,85.82,74,90,5.75
508,Asau,RO,2021-10-19 18:12:30,46.4333,26.4,48.76,75,73,3.27
509,Margate,GB,2021-10-19 18:16:13,51.3813,1.3862,64.96,77,24,5.99
510,Tekeli,KZ,2021-10-19 18:16:14,44.83,78.8239,45.1,35,0,9.73
511,Mayumba,GA,2021-10-19 18:16:14,-3.432,10.6554,76.41,83,100,7.54
512,Conakry,GN,2021-10-19 18:13:30,9.538,-13.6773,83.35,76,98,11.14
513,Lasa,IT,2021-10-19 18:14:15,46.6166,10.7002,49.03,74,96,2.08
514,Yuxia,CN,2021-10-19 18:16:15,34.0615,108.6291,48.81,93,100,3.09
515,Iralaya,HN,2021-10-19 18:16:16,15.0,-83.2333,78.89,91,100,8.66
516,Prince Rupert,CA,2021-10-19 18:15:20,54.3161,-130.3201,53.29,43,100,14.97
517,Ambatondrazaka,MG,2021-10-19 18:16:16,-17.8333,48.4167,62.17,87,0,2.68
518,Panaba,MX,2021-10-19 18:16:17,21.2833,-88.2667,93.61,40,73,8.59
519,Nagyatad,HU,2021-10-19 18:16:17,46.2296,17.3579,48.06,69,92,5.48
520,Baijiantan,CN,2021-10-19 18:16:18,45.6333,85.1833,52.99,28,96,7.49
521,Karla,EE,2021-10-19 18:16:18,59.3723,24.9275,38.57,68,0,6.91
522,Muana,BR,2021-10-19 18:14:03,-1.5283,-49.2167,88.29,58,40,6.78
523,Amga,RU,2021-10-19 18:16:20,60.8953,131.9608,18.97,95,98,3.38
524,Jutai,BR,2021-10-19 18:16:20,-5.1833,-68.9,75.58,94,100,1.59
525,Am Timan,TD,2021-10-19 18:16:20,11.0297,20.2827,81.82,58,70,4.14
526,Vila Do Maio,CV,2021-10-19 18:16:21,15.1333,-23.2167,88.59,74,3,12.66
527,Tezu,IN,2021-10-19 18:16:21,27.9167,96.1667,75.06,81,99,1.77
528,Kasongo-Lunda,CD,2021-10-19 18:16:22,-6.4667,16.8167,77.56,75,73,3.69
529,Merauke,ID,2021-10-19 18:15:53,-8.4667,140.3333,78.62,88,57,9.4
530,Nuevitas,CU,2021-10-19 18:16:22,21.5453,-77.2644,87.24,61,49,11.56
531,Rudnichnyy,RU,2021-10-19 18:16:23,59.617,52.4703,30.99,96,90,5.08
532,Kamsack,CA,2021-10-19 18:16:23,51.5667,-101.9009,37.85,49,46,11.77
533,Alamogordo,US,2021-10-19 18:16:24,32.8995,-105.9603,75.56,45,1,1.99
534,Whitehorse,CA,2021-10-19 18:16:24,60.7161,-135.0538,35.02,50,75,13.0
535,Jackson,US,2021-10-19 18:15:11,42.4165,-122.8345,56.16,76,1,3.44
536,Yumen,CN,2021-10-19 18:14:59,40.2833,97.2,40.39,31,97,7.63
537,Kitimat,CA,2021-10-19 18:16:25,54.0524,-128.6534,44.91,47,100,5.06
538,Whitianga,NZ,2021-10-19 18:16:26,-36.8333,175.7,49.01,92,97,4.83
539,Ostrovnoy,RU,2021-10-19 18:16:26,68.0531,39.5131,35.29,67,100,23.4
540,Atambua,ID,2021-10-19 18:13:15,-9.1061,124.8925,76.57,85,91,2.84
541,Brownsville,US,2021-10-19 18:16:27,25.9018,-97.4975,86.92,60,75,4.0
542,La Rioja,ES,2021-10-19 18:16:27,42.25,-2.5,63.48,65,58,5.88
543,Lakes Entrance,AU,2021-10-19 18:13:01,-37.8811,147.981,56.16,91,61,11.34
544,Ugra,RU,2021-10-19 18:16:28,54.7777,34.3267,33.57,84,90,8.46
545,Tomigusuku,JP,2021-10-19 18:16:28,26.185,127.675,74.97,64,75,20.71
546,Nishihara,JP,2021-10-19 18:16:29,26.1842,127.7558,74.48,67,75,10.36
547,Katra,IN,2021-10-19 18:16:29,32.9833,74.95,64.33,66,0,7.67
548,Tevriz,RU,2021-10-19 18:16:29,57.509,72.4042,49.68,55,100,8.63
549,Abu Kamal,SY,2021-10-19 18:11:55,34.4506,40.9171,74.37,41,3,6.2
550,Mogok,MM,2021-10-19 18:16:30,22.9167,96.5,63.1,97,29,3.06
551,Betong,TH,2021-10-19 18:16:30,5.7743,101.0723,71.89,99,71,2.01
552,Vysotskoye,RU,2021-10-19 18:16:31,45.025,42.9064,43.07,75,94,14.2
553,Koryazhma,RU,2021-10-19 18:16:31,61.3143,47.1691,31.1,95,80,5.84
554,Boone,US,2021-10-19 18:13:24,39.0334,-92.3335,72.88,51,54,1.99
555,Phek,IN,2021-10-19 18:16:33,25.6667,94.5,57.29,99,86,0.58
556,Moryakovskiy Zaton,RU,2021-10-19 18:16:33,56.6956,84.6467,38.28,85,78,5.14
557,Clovis,US,2021-10-19 18:16:34,36.8252,-119.7029,69.12,52,40,1.99
558,Jakar,BT,2021-10-19 18:16:34,27.5492,90.7525,55.0,99,100,0.81
559,Mitsamiouli,KM,2021-10-19 18:14:25,-11.3847,43.2844,77.56,76,85,8.3
560,Tsiroanomandidy,MG,2021-10-19 18:16:35,-18.7667,46.0333,77.13,54,73,8.14
561,Taquarituba,BR,2021-10-19 18:12:46,-23.5331,-49.2444,59.31,93,100,11.99
562,Honningsvag,NO,2021-10-19 18:16:35,70.9821,25.9704,26.35,86,0,3.44
563,Le Port,RE,2021-10-19 18:16:36,-20.9373,55.2919,73.4,92,58,6.38
564,Bayir,TR,2021-10-19 18:16:37,37.2687,28.2167,64.92,57,78,5.19
565,Brae,GB,2021-10-19 18:13:04,60.3964,-1.353,53.51,97,100,6.15
566,Ilinskoye-Khovanskoye,RU,2021-10-19 18:16:38,56.9718,39.7684,36.73,91,100,8.72
567,Solnechnyy,RU,2021-10-19 18:16:39,50.7214,136.6319,19.74,81,18,2.26
568,Takoradi,GH,2021-10-19 18:13:50,4.8845,-1.7554,78.57,85,100,8.3
569,Zhuhai,CN,2021-10-19 18:16:39,22.2769,113.5678,79.05,78,20,9.22
570,Zhezkazgan,KZ,2021-10-19 18:15:11,47.8043,67.7144,50.07,32,45,8.52
571,Khon Buri,TH,2021-10-19 18:16:40,14.5254,102.2459,73.38,95,99,2.37
572,Kysyl-Syr,RU,2021-10-19 18:16:40,63.8986,122.7617,32.61,98,100,9.93
573,Yenagoa,NG,2021-10-19 18:13:50,4.9247,6.2642,73.85,94,100,8.19
